{
	"id": "NorthAmerica",
	"title": "North America",
	"cover": "NorthAmerica_cover_493x306.jpg",
	"images": [{
		"active": true,
		"id": "GrandCanyon",
		"title": "Grand Canyon",
		"thumbnail": "iss041e081485_178x178.jpg",
		"filename": "iss041e081485_3240x1920.jpg",
		"fileType": "jpg",
		"timestamp": "2014-10-19T09:13:23+0000",
		"latitude": 35.9445,
		"longitude": -111.7794,
		"altitude": 260
	},{
		"active": true,
		"id": "SeattleNight",
		"title": "Seattle at Night",
		"thumbnail": "iss041e064018_178x178.jpg",
		"filename": "iss041e064018_3240x1920.jpg",
		"fileType": "jpg",
		"timestamp": "2014-10-05T09:26:50+0000",
		"latitude": 47.6467,
		"longitude": -122.0431,
		"altitude": 260
	},{
		"active": true,
		"id": "Chicago",
		"title": "Chicago",
		"thumbnail": "iss041e103787_178x178.jpg",
		"filename": "iss041e103787_3240x1920.jpg",
		"fileType": "jpg",
		"timestamp": "2014-10-28T17:08:58+0000",
		"latitude": 43.2889,
		"longitude": -88.6919,
		"altitude": 260
	},{
		"active": true,
		"id": "UpheavalDome",
		"title": "Upheaval Dome/ Utah",
		"thumbnail": "iss040e054844_178x178.jpg",
		"filename": "iss040e054844_3240x1920.jpg",
		"fileType": "jpg",
		"timestamp": "2014-07-09T20:43:07+0000",
		"latitude": 38.395,
		"longitude": -109.9044,
		"altitude": 260
	},{
		"active": true,
		"id": "Oklahoma",
		"title": "Oklahoma",
		"thumbnail": "iss041e028638_178x178.jpg",
		"filename": "iss041e028638_3240x1920.jpg",
		"fileType": "jpg",
		"timestamp": "2014-09-20T15:20:59+0000",
		"latitude": 36.3869,
		"longitude": -98.6447,
		"altitude": 259
	},{
		"active": true,
		"id": "SeattleDay",
		"title": "Seattle Day",
		"thumbnail": "iss040e056918_178x178.jpg",
		"filename": "iss040e056918_3240x1920.jpg",
		"fileType": "jpg",
		"timestamp": "2014-07-10T19:50:42+0000",
		"latitude": 47.5731,
		"longitude": -123.3669,
		"altitude": 262
	},{
		"active": true,
		"id": "BritishColumbia",
		"title": "British Columbia - Glacier",
		"thumbnail": "iss041e000295_178x178.jpg",
		"filename": "iss041e000295_3240x1920.jpg",
		"fileType": "jpg",
		"timestamp": "2014-09-11T16:06:32+0000",
		"latitude": 50.9375,
		"longitude": -125.4872,
		"altitude": 260
	},{
		"active": true,
		"id": "AtchafalayaSwamp",
		"title": "Atchafalaya Swamp, Louisiana",
		"thumbnail": "iss040e139416_178x178.jpg",
		"filename": "iss040e139416_3240x1920.jpg",
		"fileType": "jpg",
		"timestamp": "2014-09-09T19:30:13+0000",
		"latitude": 29.785,
		"longitude": -87.9458,
		"altitude": 258
	}, {
		"active": true,
		"id": "GreatSaltLake",
		"title": "Great Salt Lake, Utah ",
		"thumbnail": "iss040e124327_178x178.jpg",
		"filename": "iss040e124327_3240x1920.jpg",
		"fileType": "jpg",
		"timestamp": "2014-09-06T15:21:03+0000",
		"latitude": 42.8325,
		"longitude": -113.1897,
		"altitude": 260
	}]
}
